[
  {
    "name": "Gabtoli",
    "lat": 23.6324042,
    "lon": 90.4882606
  },
  {
    "name": "Technical",
    "lat": 24.1532979,
    "lon": 90.6725939
  },
  {
    "name": "Ansar Camp",
    "lat": 23.7910955,
    "lon": 90.353924
  },
  {
    "name": "Mirpur 1",
    "lat": 23.801924,
    "lon": 90.3523456
  },
  {
    "name": "Sony Cinema Hall",
    "lat": 23.8004874,
    "lon": 90.3553934
  },
  {
    "name": "Mirpur 2",
    "lat": 23.8063402,
    "lon": 90.3570259
  },
  {
    "name": "Mirpur 10",
    "lat": 23.8083649,
    "lon": 90.3682614
  },
  {
    "name": "Mirpur 11",
    "lat": 23.8190959,
    "lon": 90.3652809
  },
  {
    "name": "Purobi",
    "lat": 23.8190612,
    "lon": 90.3652321
  },
  {
    "name": "Kalshi",
    "lat": 23.8202931,
    "lon": 90.3710408
  },
  {
    "name": "MES",
    "lat": 23.9161376,
    "lon": 90.2607105
  },
  {
    "name": "Shewra",
    "lat": 23.8179937,
    "lon": 90.4136055
  },
  {
    "name": "Kuril Bishwa Road",
    "lat": 23.8212083,
    "lon": 90.4195365
  },
  {
    "name": "Jamuna Future Park",
    "lat": 23.8134982,
    "lon": 90.4240893
  },
  {
    "name": "Bashundhara",
    "lat": 23.8239025,
    "lon": 90.4699552
  },
  {
    "name": "Nadda",
    "lat": 23.809823,
    "lon": 90.4220557
  },
  {
    "name": "Notun Bazar",
    "lat": 23.7982944,
    "lon": 90.4239709
  },
  {
    "name": "Bashtola",
    "lat": 23.7944047,
    "lon": 90.4225127
  },
  {
    "name": "Shahjadpur",
    "lat": 23.7884856,
    "lon": 90.4237741
  },
  {
    "name": "Uttar Badda",
    "lat": 23.7857042,
    "lon": 90.4256113
  },
  {
    "name": "Badda",
    "lat": 23.7765425,
    "lon": 90.4463012
  },
  {
    "name": "Merul",
    "lat": 23.7718576,
    "lon": 90.4250807
  },
  {
    "name": "Rampura Bridge",
    "lat": 23.7680296,
    "lon": 90.4233403
  },
  {
    "name": "Banasree",
    "lat": 23.7617123,
    "lon": 90.4312774
  },
  {
    "name": "Demra Staff Quarter",
    "lat": 23.7197292,
    "lon": 90.4905289
  },
  {
    "name": "Savar",
    "lat": 23.8477,
    "lon": 90.2587
  },
  {
    "name": "Hemayetpur",
    "lat": 23.7935258,
    "lon": 90.2708736
  },
  {
    "name": "Amin Bazar",
    "lat": 23.7981904,
    "lon": 90.3379349
  },
  {
    "name": "Kallyanpur",
    "lat": 23.7806848,
    "lon": 90.3613321
  },
  {
    "name": "Shyamoli",
    "lat": 23.7775998,
    "lon": 90.3601928
  },
  {
    "name": "Shishu Mela",
    "lat": 23.7729437,
    "lon": 90.3671489
  },
  {
    "name": "Agargaon",
    "lat": 23.7784275,
    "lon": 90.3800503
  },
  {
    "name": "Bijoy Sarani",
    "lat": 23.7683525,
    "lon": 90.3918572
  },
  {
    "name": "Jahangir Gate",
    "lat": 23.7757744,
    "lon": 90.3900382
  },
  {
    "name": "Mohakhali",
    "lat": 23.7799396,
    "lon": 90.4083222
  },
  {
    "name": "Wireless",
    "lat": 23.7496943,
    "lon": 90.4082451
  },
  {
    "name": "Gulshan 1",
    "lat": 23.780553,
    "lon": 90.4169
  },
  {
    "name": "Fulbaria",
    "lat": 24.1892148,
    "lon": 90.3087797
  },
  {
    "name": "GPO",
    "lat": 23.7289296,
    "lon": 90.411401
  },
  {
    "name": "Paltan",
    "lat": 23.7313082,
    "lon": 90.4120882
  },
  {
    "name": "Press Club",
    "lat": 22.967864,
    "lon": 89.8176179
  },
  {
    "name": "High Court",
    "lat": 23.708297,
    "lon": 90.4141758
  },
  {
    "name": "Shahbag",
    "lat": 23.7373359,
    "lon": 90.3961724
  },
  {
    "name": "Bangla Motor",
    "lat": 23.7458397,
    "lon": 90.3949387
  },
  {
    "name": "Kawran Bazar",
    "lat": 23.7514308,
    "lon": 90.3948605
  },
  {
    "name": "Farmgate",
    "lat": 23.7590394,
    "lon": 90.3871113
  },
  {
    "name": "Chairman Bari",
    "lat": 23.7109693,
    "lon": 90.4109548
  },
  {
    "name": "Sainik Club",
    "lat": 23.79123,
    "lon": 90.399527
  },
  {
    "name": "Banani",
    "lat": 23.790321,
    "lon": 90.4076959
  },
  {
    "name": "Kakali",
    "lat": 23.820295,
    "lon": 90.3682928
  },
  {
    "name": "Staff Road",
    "lat": 23.8127577,
    "lon": 90.4016567
  },
  {
    "name": "Khilkhet",
    "lat": 23.8351324,
    "lon": 90.4351121
  },
  {
    "name": "Airport",
    "lat": 23.75939,
    "lon": 90.3888679
  },
  {
    "name": "Jashimuddin (Uttara)",
    "lat": 23.8608721,
    "lon": 90.4004138
  },
  {
    "name": "Rajlakshmi",
    "lat": 23.8643282,
    "lon": 90.3999441
  },
  {
    "name": "Azampur",
    "lat": 23.8665496,
    "lon": 90.4100105
  },
  {
    "name": "House Building",
    "lat": 23.8748268,
    "lon": 90.4006897
  },
  {
    "name": "Abdullahpur",
    "lat": 23.5542881,
    "lon": 90.473867
  },
  {
    "name": "Sadarghat",
    "lat": 23.705892,
    "lon": 90.4092857
  },
  {
    "name": "Ray Saheb Bazar",
    "lat": 23.7138661,
    "lon": 90.411512
  },
  {
    "name": "Naya Bazar",
    "lat": 23.7144626,
    "lon": 90.4082451
  },
  {
    "name": "Kakrail",
    "lat": 23.7385398,
    "lon": 90.4071475
  },
  {
    "name": "Shantinagar",
    "lat": 23.7385358,
    "lon": 90.4139156
  },
  {
    "name": "Mouchak",
    "lat": 24.023552,
    "lon": 90.292921
  },
  {
    "name": "Nabisco",
    "lat": 23.7692591,
    "lon": 90.4012227
  },
  {
    "name": "Tongi",
    "lat": 23.9084932,
    "lon": 90.3980037
  },
  {
    "name": "Station Road",
    "lat": 23.731954,
    "lon": 90.4231587
  },
  {
    "name": "Mill Gate",
    "lat": 23.8960141,
    "lon": 90.3993768
  },
  {
    "name": "Gazipur Bypass",
    "lat": 23.8426962,
    "lon": 90.5338706
  },
  {
    "name": "Konabari",
    "lat": 24.0120416,
    "lon": 90.3166405
  },
  {
    "name": "Chandra",
    "lat": 24.0472727,
    "lon": 90.2384011
  },
  {
    "name": "Kadamtali",
    "lat": 23.702155,
    "lon": 90.397903
  },
  {
    "name": "Keraniganj",
    "lat": 23.7005013,
    "lon": 90.3826441
  },
  {
    "name": "Babubazar",
    "lat": 23.7111028,
    "lon": 90.4037989
  },
  {
    "name": "Malibagh Railgate",
    "lat": 23.7496972,
    "lon": 90.4126346
  },
  {
    "name": "Hazipara",
    "lat": 23.8632798,
    "lon": 90.4147242
  },
  {
    "name": "Rampura Bazar",
    "lat": 23.7602428,
    "lon": 90.4186208
  },
  {
    "name": "Motijheel",
    "lat": 23.7272598,
    "lon": 90.4211957
  },
  {
    "name": "Gulistan",
    "lat": 23.7249037,
    "lon": 90.4120785
  },
  {
    "name": "Mogbazar",
    "lat": 23.7545873,
    "lon": 90.4096892
  },
  {
    "name": "Nandan Park",
    "lat": 24.0300592,
    "lon": 90.239812
  },
  {
    "name": "Zirani Bazar",
    "lat": 23.9938043,
    "lon": 90.2551426
  },
  {
    "name": "Baipayl",
    "lat": 23.9380015,
    "lon": 90.270064
  },
  {
    "name": "Nobinagar",
    "lat": 23.915482,
    "lon": 90.259228
  },
  {
    "name": "College Gate",
    "lat": 23.7503675,
    "lon": 90.4199166
  },
  {
    "name": "Asad Gate",
    "lat": 23.7601299,
    "lon": 90.3727245
  },
  {
    "name": "Khamar Bari",
    "lat": 23.7591274,
    "lon": 90.383882
  },
  {
    "name": "Kamalapur",
    "lat": 23.7318719,
    "lon": 90.4253444
  },
  {
    "name": "Mirpur 14",
    "lat": 23.7988425,
    "lon": 90.3847119
  },
  {
    "name": "Mazar Road",
    "lat": 23.7895373,
    "lon": 90.348195
  },
  {
    "name": "Rupnagar",
    "lat": 23.8152269,
    "lon": 90.3547485
  },
  {
    "name": "Beribadh",
    "lat": 23.7129833,
    "lon": 90.3863944
  },
  {
    "name": "Birulia",
    "lat": 23.8501655,
    "lon": 90.3339337
  },
  {
    "name": "Ashulia",
    "lat": 23.8969898,
    "lon": 90.3289577
  },
  {
    "name": "Zirabo",
    "lat": 23.9132163,
    "lon": 90.3212269
  },
  {
    "name": "Fantasy Kingdom",
    "lat": 23.9342739,
    "lon": 90.2914879
  },
  {
    "name": "Japan Garden City",
    "lat": 23.7637085,
    "lon": 90.3582014
  },
  {
    "name": "Adabor",
    "lat": 23.7737569,
    "lon": 90.3574328
  },
  {
    "name": "Kazipara",
    "lat": 23.7992408,
    "lon": 90.3719878
  },
  {
    "name": "Shewrapara",
    "lat": 23.7909631,
    "lon": 90.3755087
  },
  {
    "name": "Old Airport",
    "lat": 23.7651871,
    "lon": 90.3889384
  },
  {
    "name": "kakali",
    "lat": 23.820295,
    "lon": 90.3682928
  },
  {
    "name": "Sign Board",
    "lat": 23.7089323,
    "lon": 90.3667608
  },
  {
    "name": "Shonir Akhra",
    "lat": 23.7036614,
    "lon": 90.4508803
  },
  {
    "name": "Jatrabari",
    "lat": 23.7093978,
    "lon": 90.433806
  },
  {
    "name": "Sayedabad",
    "lat": 23.7155268,
    "lon": 90.4293093
  },
  {
    "name": "Mugdapara",
    "lat": 23.7291223,
    "lon": 90.4335651
  },
  {
    "name": "Bashabo",
    "lat": 23.7405474,
    "lon": 90.4333478
  },
  {
    "name": "Khilgaon",
    "lat": 23.7506546,
    "lon": 90.4232818
  },
  {
    "name": "Bashtola -",
    "lat": 23.7944047,
    "lon": 90.4225127
  },
  {
    "name": "Duaripara",
    "lat": 23.8272661,
    "lon": 90.3565405
  },
  {
    "name": "Shiyal Bari",
    "lat": 23.8081946,
    "lon": 90.3580172
  },
  {
    "name": "Proshika Moor",
    "lat": 24.415524,
    "lon": 90.6552503
  },
  {
    "name": "Dhanmondi 27",
    "lat": 23.754089,
    "lon": 90.3713507
  },
  {
    "name": "Shukrabad",
    "lat": 23.7537064,
    "lon": 90.3797806
  },
  {
    "name": "Dhanmondi 32",
    "lat": 23.7380208,
    "lon": 90.3859514
  },
  {
    "name": "Kalabagan",
    "lat": 23.7487244,
    "lon": 90.379199
  },
  {
    "name": "City College",
    "lat": 23.7396837,
    "lon": 90.3828522
  },
  {
    "name": "New Market",
    "lat": 23.7332423,
    "lon": 90.384369
  },
  {
    "name": "Nilkhet",
    "lat": 23.7329358,
    "lon": 90.3860855
  },
  {
    "name": "Azimpur",
    "lat": 23.7252946,
    "lon": 90.3834641
  },
  {
    "name": "Jamgora",
    "lat": 23.5442237,
    "lon": 90.344015
  },
  {
    "name": "Ashulia Bazar",
    "lat": 23.9052388,
    "lon": 90.2930078
  },
  {
    "name": "Kamarpara",
    "lat": 23.8906579,
    "lon": 90.3849515
  },
  {
    "name": "Dhour",
    "lat": 23.890623,
    "lon": 90.3685719
  },
  {
    "name": "Tarabo",
    "lat": 23.725525,
    "lon": 90.5154069
  },
  {
    "name": "Madanpur",
    "lat": 23.7076942,
    "lon": 90.557245
  },
  {
    "name": "Mohammadpur Bus Stand",
    "lat": 23.7569928,
    "lon": 90.3617359
  },
  {
    "name": "Science Lab",
    "lat": 23.7391036,
    "lon": 90.3833174
  },
  {
    "name": "Katabon",
    "lat": 23.7387417,
    "lon": 90.3910003
  },
  {
    "name": "Bata Signal",
    "lat": 23.7390795,
    "lon": 90.3886771
  },
  {
    "name": "Taltola",
    "lat": 23.7512986,
    "lon": 90.4244569
  },
  {
    "name": "Rajarbag",
    "lat": 23.7395964,
    "lon": 90.4171128
  },
  {
    "name": "Bangla College",
    "lat": 23.7849521,
    "lon": 90.3527616
  },
  {
    "name": "Darussalam",
    "lat": 23.7570989,
    "lon": 90.3704455
  },
  {
    "name": "Arambagh",
    "lat": 23.7309015,
    "lon": 90.4215656
  },
  {
    "name": "Kamlapur",
    "lat": 23.7132696,
    "lon": 90.4278923
  },
  {
    "name": "Manik Nagar",
    "lat": 23.7228244,
    "lon": 90.4314822
  },
  {
    "name": "TT Para",
    "lat": 23.8044193,
    "lon": 90.3675067
  },
  {
    "name": "Satrasta",
    "lat": 23.7565011,
    "lon": 90.3999974
  },
  {
    "name": "Manik Mia Avenue",
    "lat": 23.7583627,
    "lon": 90.3792807
  },
  {
    "name": "Bangla Motor Shahbag",
    "lat": 23.739016,
    "lon": 90.3948472
  },
  {
    "name": "Maowa",
    "lat": 23.4740429,
    "lon": 90.2552704
  },
  {
    "name": "Diabari",
    "lat": 23.8724286,
    "lon": 90.366364
  },
  {
    "name": "Khamarbari",
    "lat": 23.7584744,
    "lon": 90.3832482
  },
  {
    "name": "Ray Shaheb Bazar",
    "lat": 23.7130418,
    "lon": 90.4103431
  },
  {
    "name": "Mirpur 12",
    "lat": 23.8251043,
    "lon": 90.3706719
  },
  {
    "name": "Dhakeshwari",
    "lat": 23.7232098,
    "lon": 90.3897448
  },
  {
    "name": "Matuail",
    "lat": 23.7029393,
    "lon": 90.463095
  },
  {
    "name": "Rayerbag",
    "lat": 23.6980479,
    "lon": 90.457102
  },
  {
    "name": "Chankhar Pul",
    "lat": 23.7238334,
    "lon": 90.4003441
  },
  {
    "name": "Bakshi Bazar",
    "lat": 23.7225591,
    "lon": 90.3955594
  },
  {
    "name": "Palashi",
    "lat": 23.7281373,
    "lon": 90.3892069
  },
  {
    "name": "Meghna Ghat",
    "lat": 23.6143126,
    "lon": 90.6136577
  },
  {
    "name": "Kalshi Pallabi",
    "lat": 23.831617,
    "lon": 90.3713323
  },
  {
    "name": "Kanchpur",
    "lat": 23.7062107,
    "lon": 90.5211599
  },
  {
    "name": "Chittagong Road",
    "lat": 23.6972599,
    "lon": 90.5094673
  },
  {
    "name": "Mohammadpur",
    "lat": 23.7593888,
    "lon": 90.3663251
  },
  {
    "name": "Vulta",
    "lat": 23.7842755,
    "lon": 90.5641893
  },
  {
    "name": "300 Feet",
    "lat": 23.725835,
    "lon": 90.3618758
  },
  {
    "name": "Shankar",
    "lat": 23.7483109,
    "lon": 90.3660743
  },
  {
    "name": "Star Kabab",
    "lat": 23.7475099,
    "lon": 90.3702012
  },
  {
    "name": "Dhanmondi 15",
    "lat": 23.7382965,
    "lon": 90.3812441
  },
  {
    "name": "Jigatola",
    "lat": 23.7390073,
    "lon": 90.3710009
  },
  {
    "name": "Balughat",
    "lat": 23.8296126,
    "lon": 90.3904977
  },
  {
    "name": "Cantonment",
    "lat": 23.8197532,
    "lon": 90.397582
  },
  {
    "name": "Kachukhet",
    "lat": 23.7935577,
    "lon": 90.3902815
  },
  {
    "name": "Bosila",
    "lat": 23.7473392,
    "lon": 90.345289
  },
  {
    "name": "Dhamrai",
    "lat": 23.9183476,
    "lon": 90.2142069
  },
  {
    "name": "Kalampur",
    "lat": 23.918176,
    "lon": 90.154259
  },
  {
    "name": "Tajmahal Road",
    "lat": 23.7655571,
    "lon": 90.3643427
  },
  {
    "name": "Postagola",
    "lat": 23.6921384,
    "lon": 90.4331267
  },
  {
    "name": "Dholairpar",
    "lat": 23.7026053,
    "lon": 90.4353396
  },
  {
    "name": "Malibagh",
    "lat": 23.7464464,
    "lon": 90.4159433
  },
  {
    "name": "Eden College",
    "lat": 23.7287949,
    "lon": 90.3871052
  },
  {
    "name": "Police Plaza",
    "lat": 23.7723049,
    "lon": 90.4157346
  },
  {
    "name": "Gulshan 2",
    "lat": 23.7947191,
    "lon": 90.4136986
  },
  {
    "name": "Salimullah Road",
    "lat": 23.7627467,
    "lon": 90.3621232
  },
  {
    "name": "Baitul Mukarram",
    "lat": 23.7294725,
    "lon": 90.412617
  },
  {
    "name": "Kolabagan",
    "lat": 23.7488966,
    "lon": 90.3821314
  },
  {
    "name": "Karwan Bazar",
    "lat": 23.7512656,
    "lon": 90.3927762
  },
  {
    "name": "Gulshan Link Road",
    "lat": 23.7711656,
    "lon": 90.4035023
  },
  {
    "name": "Khamar Bari Farmgate",
    "lat": 23.7595608,
    "lon": 90.3853708
  },
  {
    "name": "Shib Bari",
    "lat": 23.7290005,
    "lon": 90.3975921
  },
  {
    "name": "Chashara",
    "lat": 23.6239035,
    "lon": 90.4989472
  },
  {
    "name": "Shibu Market",
    "lat": 23.6440924,
    "lon": 90.4934897
  },
  {
    "name": "Jalkuri",
    "lat": 23.6628506,
    "lon": 90.4898799
  },
  {
    "name": "Metro Hall",
    "lat": 23.6243358,
    "lon": 90.5047895
  },
  {
    "name": "Bangladesh Bank",
    "lat": 23.726625,
    "lon": 90.4232948
  },
  {
    "name": "Sony Cinema Hall Mirpur 1",
    "lat": 23.8004874,
    "lon": 90.3553934
  },
  {
    "name": "Kuril Flyover",
    "lat": 23.8223541,
    "lon": 90.4200251
  },
  {
    "name": "Airport Jashimuddin (Uttara)",
    "lat": 23.8600545,
    "lon": 90.3910108
  },
  {
    "name": "Abdulla",
    "lat": 23.7186457,
    "lon": 90.4007116
  },
  {
    "name": "Narshinghapur",
    "lat": 23.9600473,
    "lon": 90.3162403
  },
  {
    "name": "Sura Bari",
    "lat": 23.9628511,
    "lon": 90.3168561
  },
  {
    "name": "Kashimpur",
    "lat": 23.9879493,
    "lon": 90.3171133
  },
  {
    "name": "Khilgaon Flyover",
    "lat": 23.7437545,
    "lon": 90.4241646
  },
  {
    "name": "Kazla",
    "lat": 24.3645966,
    "lon": 88.6323494
  },
  {
    "name": "Dayaganj",
    "lat": 23.7104417,
    "lon": 90.4246393
  },
  {
    "name": "Dhupkhola",
    "lat": 23.7063077,
    "lon": 90.4219302
  },
  {
    "name": "Tolarbag",
    "lat": 23.7884337,
    "lon": 90.3516573
  },
  {
    "name": "Kazipara Shewrapara",
    "lat": 23.795371,
    "lon": 90.3737563
  },
  {
    "name": "New Market Nilkhet",
    "lat": 23.7332423,
    "lon": 90.384369
  },
  {
    "name": "- Ray Saheb Bazar",
    "lat": 23.7138661,
    "lon": 90.411512
  },
  {
    "name": "Technical -",
    "lat": 24.1532979,
    "lon": 90.6725939
  },
  {
    "name": "Manikganj",
    "lat": 23.8329836,
    "lon": 89.9666878
  },
  {
    "name": "Paturia",
    "lat": 23.7888496,
    "lon": 89.8098957
  },
  {
    "name": "Rayer Bazar",
    "lat": 23.7448424,
    "lon": 90.3627337
  },
  {
    "name": "Sikder Medical College",
    "lat": 23.7413377,
    "lon": 90.3603919
  },
  {
    "name": "Hazaribag",
    "lat": 23.7337242,
    "lon": 90.3557802
  },
  {
    "name": "Nawabganj",
    "lat": 23.6605166,
    "lon": 90.1604757
  },
  {
    "name": "Kamrangirchar",
    "lat": 23.7145473,
    "lon": 90.3813578
  },
  {
    "name": "Showari Ghat",
    "lat": 23.710865,
    "lon": 90.3943553
  },
  {
    "name": "Mitford Ghat",
    "lat": 23.7100338,
    "lon": 90.4016154
  },
  {
    "name": "Mirpur 2 Mirpur 10",
    "lat": 23.8063231,
    "lon": 90.3574802
  },
  {
    "name": "Kuril  Bishwa Road",
    "lat": 23.8212083,
    "lon": 90.4195365
  },
  {
    "name": "Joydebpur",
    "lat": 23.9980388,
    "lon": 90.420312
  },
  {
    "name": "Sreepur",
    "lat": 24.1988756,
    "lon": 90.478198
  },
  {
    "name": "Jurain",
    "lat": 23.6953714,
    "lon": 90.4338889
  },
  {
    "name": "Jatrabari -",
    "lat": 23.7093978,
    "lon": 90.433806
  },
  {
    "name": "Sony CInema Hall",
    "lat": 23.8004874,
    "lon": 90.3553934
  },
  {
    "name": "Rajendrapur",
    "lat": 24.100134,
    "lon": 90.448634
  },
  {
    "name": "Fakirapul",
    "lat": 23.7325505,
    "lon": 90.416987
  },
  {
    "name": "Tikatuli",
    "lat": 23.7189757,
    "lon": 90.424011
  },
  {
    "name": "Gandaria",
    "lat": 23.7060804,
    "lon": 90.4263861
  },
  {
    "name": "IDB",
    "lat": 23.7787456,
    "lon": 90.3791739
  },
  {
    "name": "Shimultola",
    "lat": 23.7885732,
    "lon": 90.3654816
  },
  {
    "name": "Palli Bidyut",
    "lat": 24.038092,
    "lon": 90.7380995
  },
  {
    "name": "Savar Cantonment",
    "lat": 23.917256,
    "lon": 90.2603874
  },
  {
    "name": "Victoria Park",
    "lat": 23.7092118,
    "lon": 90.4123496
  },
  {
    "name": "Sanarpar",
    "lat": 23.6953319,
    "lon": 90.4927257
  },
  {
    "name": "South Banasree",
    "lat": 23.7523091,
    "lon": 90.4402892
  },
  {
    "name": "Ring road",
    "lat": 23.7704497,
    "lon": 90.3590731
  },
  {
    "name": "Adabor Shyamoli",
    "lat": 23.772436,
    "lon": 90.3560798
  },
  {
    "name": "Nimtola",
    "lat": 23.7431995,
    "lon": 90.3641602
  },
  {
    "name": "Hasnabad",
    "lat": 23.6825996,
    "lon": 90.4254385
  },
  {
    "name": "Nobinagar Chandra",
    "lat": 23.915482,
    "lon": 90.259228
  },
  {
    "name": "Press Club  Paltan",
    "lat": 23.7295084,
    "lon": 90.4067004
  },
  {
    "name": "Mirpur 13",
    "lat": 23.8064,
    "lon": 90.3776496
  },
  {
    "name": "Workshop",
    "lat": 23.8679221,
    "lon": 90.3332454
  },
  {
    "name": "Saudi Colony",
    "lat": 23.7783443,
    "lon": 90.3893653
  },
  {
    "name": "Mirpur DOHS",
    "lat": 23.8369827,
    "lon": 90.3693618
  },
  {
    "name": "Garrison (Cantonment)",
    "lat": 23.8024127,
    "lon": 90.395533
  },
  {
    "name": "Adamjee School",
    "lat": 23.7934767,
    "lon": 90.3932954
  },
  {
    "name": "Panthapath",
    "lat": 23.7506188,
    "lon": 90.3879515
  },
  {
    "name": "Bot tola",
    "lat": 23.8796706,
    "lon": 90.2652939
  },
  {
    "name": "Signal",
    "lat": 23.7390795,
    "lon": 90.3886771
  },
  {
    "name": "CMH",
    "lat": 23.8143341,
    "lon": 90.3980869
  },
  {
    "name": "Adamjee College",
    "lat": 23.7944687,
    "lon": 90.3941234
  }
]
